altitude_agl: null,angular_vel_z: 0.001175587181933224,compass_hdg: 193.13,yaw: -103.09639095092287,angular_vel_y: 0.000960037810727954,angular_vel_x: -0.001020856318064034,pitch: 0.29571853628355155,linear_vel_x: 0.0,altitude_amsl: 0.08998356759548187,altitude_relative: 0.008,battery_volts: 12.586999893188477,ros_time: 1579810097,linear_vel_z: 9.80665,linear_vel_y: 1.2009682532858392e-15,longitude: -3.0064964,latitude: 51.709745,roll: -0.26445238486246453
altitude_agl: null,angular_vel_z: 0.0012117701116949318,compass_hdg: 193.08,yaw: -103.0654365336044,angular_vel_y: 0.0010818345472216608,angular_vel_x: -0.0009674665052443743,pitch: 0.2989172526100859,linear_vel_x: 0.0,altitude_amsl: 0.08998356759548187,altitude_relative: 0.008,battery_volts: 12.586999893188477,ros_time: 1579810098,linear_vel_z: 9.81645665,linear_vel_y: 1.202169221539125e-15,longitude: -3.0064964,latitude: 51.709745,roll: -0.2674087628755959
altitude_agl: null,angular_vel_z: 0.0012735471827909348,compass_hdg: 193.05,yaw: -103.03184566326625,angular_vel_y: 0.0010254099033772948,angular_vel_x: -0.0009201098000630736,pitch: 0.301548076059731,linear_vel_x: 0.0,altitude_amsl: 0.08998356759548187,altitude_relative: 0.009,battery_volts: 12.586999893188477,ros_time: 1579810099,linear_vel_z: 9.81645665,linear_vel_y: 1.202169221539125e-15,longitude: -3.0064964,latitude: 51.709745,roll: -0.269917870219797
altitude_agl: null,angular_vel_z: 0.0010496452450752256,compass_hdg: 193.01,yaw: -102.99979841568057,angular_vel_y: 0.001155922771431506,angular_vel_x: -0.001013846369460225,pitch: 0.3039722062457035,linear_vel_x: 0.0,altitude_amsl: 0.08998356759548187,altitude_relative: 0.009,battery_volts: 12.586999893188477,ros_time: 1579810100,linear_vel_z: 9.81645665,linear_vel_y: 1.202169221539125e-15,longitude: -3.0064964,latitude: 51.709745,roll: -0.2718913946835339
altitude_agl: null,angular_vel_z: 0.001130426302552223,compass_hdg: 192.98,yaw: -102.96777848885155,angular_vel_y: 0.0013056849129498007,angular_vel_x: -0.001097354106605053,pitch: 0.30816823691276574,linear_vel_x: 0.0,altitude_amsl: 0.08998356759548187,altitude_relative: 0.009,battery_volts: 12.586999893188477,ros_time: 1579810101,linear_vel_z: 9.81645665,linear_vel_y: 1.202169221539125e-15,longitude: -3.0064964,latitude: 51.709745,roll: -0.27502887943137644
altitude_agl: null,angular_vel_z: 0.00130587606690824,compass_hdg: 192.95,yaw: -102.93691969418143,angular_vel_y: 0.0010982196545228364,angular_vel_x: -0.0010122198145836592,pitch: 0.310752956585513,linear_vel_x: 0.0,altitude_amsl: 0.08998356759548187,altitude_relative: 0.009,battery_volts: 12.586999893188477,ros_time: 1579810102,linear_vel_z: 9.81645665,linear_vel_y: 1.202169221539125e-15,longitude: -3.0064964,latitude: 51.709745,roll: -0.279377282013868
altitude_agl: null,angular_vel_z: 0.001107423799112439,compass_hdg: 192.92,yaw: -102.90653901275321,angular_vel_y: 0.0009942998876795175,angular_vel_x: -0.001175439334474504,pitch: 0.3132741768433204,linear_vel_x: 0.0,altitude_amsl: 0.08998356759548187,altitude_relative: 0.009,battery_volts: 12.586999893188477,ros_time: 1579810103,linear_vel_z: 9.81645665,linear_vel_y: 1.202169221539125e-15,longitude: -3.0064964,latitude: 51.709745,roll: -0.2831530159231364
altitude_agl: null,angular_vel_z: 0.0012056906707584856,compass_hdg: 192.89,yaw: -102.87466935008595,angular_vel_y: 0.0013215232174843552,angular_vel_x: -0.0011585054453462362,pitch: 0.31586039061994875,linear_vel_x: 0.0,altitude_amsl: 0.08998356759548187,altitude_relative: 0.009,battery_volts: 12.586999893188477,ros_time: 1579810104,linear_vel_z: 9.81645665,linear_vel_y: 1.202169221539125e-15,longitude: -3.0064964,latitude: 51.709745,roll: -0.2848246780420706
altitude_agl: null,angular_vel_z: 0.0012102731270715592,compass_hdg: 192.86,yaw: -102.8432231591472,angular_vel_y: 0.0011717336019501092,angular_vel_x: -0.0012047803029417992,pitch: 0.3193438671379345,linear_vel_x: 0.0,altitude_amsl: 0.08998356759548187,altitude_relative: 0.009,battery_volts: 12.538000106811523,ros_time: 1579810105,linear_vel_z: 9.81645665,linear_vel_y: 1.202169221539125e-15,longitude: -3.0064964,latitude: 51.709745,roll: -0.2866972437721383
altitude_agl: null,angular_vel_z: 0.0012103542685508726,compass_hdg: 192.82,yaw: -102.81095734550809,angular_vel_y: 0.0012663655215874316,angular_vel_x: -0.0011972362408414483,pitch: 0.3220642567791565,linear_vel_x: 0.0,altitude_amsl: 0.08998356759548187,altitude_relative: 0.009,battery_volts: 12.48900032043457,ros_time: 1579810106,linear_vel_z: 9.80665,linear_vel_y: 1.2009682532858392e-15,longitude: -3.0064964,latitude: 51.709745,roll: -0.2902949391957368
altitude_agl: null,angular_vel_z: -0.002402663463726592,compass_hdg: 192.79,yaw: -102.90518663529757,angular_vel_y: -0.38952115178108215,angular_vel_x: 0.3736732602119446,pitch: -3.5146911228230318,linear_vel_x: -0.00980665,altitude_amsl: 0.08998356759548187,altitude_relative: 0.108,battery_volts: 12.093999862670898,ros_time: 1579810107,linear_vel_z: 10.46369555,linear_vel_y: 0.00980665000000128,longitude: -3.0064964,latitude: 51.709745,roll: 3.3390274085501783
altitude_agl: null,angular_vel_z: 0.007095786742866028,compass_hdg: 192.98,yaw: -102.97639818758411,angular_vel_y: 0.08939921110868454,angular_vel_x: -0.0840701162815094,pitch: 2.1593517129382507,linear_vel_x: 0.22555295,altitude_amsl: 0.08998356759548187,altitude_relative: 1.602,battery_volts: 12.142999649047852,ros_time: 1579810108,linear_vel_z: 10.50292215,linear_vel_y: 0.24516625000000128,longitude: -3.0064975,latitude: 51.7097462,roll: -2.049152800539029
altitude_agl: null,angular_vel_z: -0.0032876471523195488,compass_hdg: 194.72,yaw: -104.71685333150842,angular_vel_y: -0.013050617650151253,angular_vel_x: -0.010405662469565868,pitch: 1.8476895407803344,linear_vel_x: 0.08825985,altitude_amsl: 0.08998356759548187,altitude_relative: 3.716,battery_volts: 12.192999839782715,ros_time: 1579810109,linear_vel_z: 10.01258965,linear_vel_y: 0.01961330000000123,longitude: -3.0064995,latitude: 51.7097486,roll: -1.891426443687098
altitude_agl: null,angular_vel_z: 0.0006801155395805851,compass_hdg: 194.86,yaw: -104.85654436041352,angular_vel_y: -0.012196449562907219,angular_vel_x: 0.014299214817583561,pitch: 0.6727045309417642,linear_vel_x: -0.0588399,altitude_amsl: 0.08998356759548187,altitude_relative: 5.992,battery_volts: 12.192999839782715,ros_time: 1579810111,linear_vel_z: 9.8654899,linear_vel_y: -0.1274864499999988,longitude: -3.0064989,latitude: 51.7097478,roll: -0.5717166088859807
altitude_agl: null,angular_vel_z: 8.637504652142466e-05,compass_hdg: 194.81,yaw: -104.80613756433881,angular_vel_y: 0.004803849384188652,angular_vel_x: -0.0028707103338092566,pitch: 0.06767416796693605,linear_vel_x: -0.0784532,altitude_amsl: 0.08998356759548187,altitude_relative: 8.338,battery_volts: 12.192999839782715,ros_time: 1579810112,linear_vel_z: 9.81645665,linear_vel_y: 0.009806650000001202,longitude: -3.0064976,latitude: 51.7097465,roll: -0.01025658958572559
altitude_agl: null,angular_vel_z: 0.0005088978214189407,compass_hdg: 194.82,yaw: -104.81455235739628,angular_vel_y: 0.0023597634863108397,angular_vel_x: -0.008003179915249348,pitch: 0.21590686869745349,linear_vel_x: -0.02941995,altitude_amsl: 0.08998356759548187,altitude_relative: 10.74,battery_volts: 12.192999839782715,ros_time: 1579810112,linear_vel_z: 9.8851032,linear_vel_y: 1.2105759993121259e-15,longitude: -3.0064973,latitude: 51.7097462,roll: -0.18161079466773852
altitude_agl: null,angular_vel_z: 0.00013709394261240883,compass_hdg: 194.82,yaw: -104.81821333879142,angular_vel_y: 0.006154327653348446,angular_vel_x: -0.003559304168447852,pitch: 0.3423962891952567,linear_vel_x: 0.02941995,altitude_amsl: 0.08998356759548187,altitude_relative: 13.168,battery_volts: 12.192999839782715,ros_time: 1579810113,linear_vel_z: 9.80665,linear_vel_y: 1.2009682532858392e-15,longitude: -3.0064975,latitude: 51.7097463,roll: -0.29995650858098427
altitude_agl: null,angular_vel_z: 0.00043973443098366304,compass_hdg: 194.82,yaw: -104.81285847048213,angular_vel_y: -0.003670541336759925,angular_vel_x: 0.0016003260388970375,pitch: 0.32945014587117355,linear_vel_x: 0.0392266,altitude_amsl: 0.08998356759548187,altitude_relative: 15.624,battery_volts: 12.192999839782715,ros_time: 1579810114,linear_vel_z: 9.81645665,linear_vel_y: 0.0588399000000012,longitude: -3.0064976,latitude: 51.7097463,roll: -0.32419834404924047
altitude_agl: null,angular_vel_z: 0.0003486732020974158,compass_hdg: 194.82,yaw: -104.81147877226978,angular_vel_y: 0.0007213131757453084,angular_vel_x: -0.009624079801142216,pitch: 0.26334720155781993,linear_vel_x: 0.0,altitude_amsl: 0.08998356759548187,altitude_relative: 18.088,battery_volts: 12.192999839782715,ros_time: 1579810116,linear_vel_z: 9.8262633,linear_vel_y: -0.009806649999998796,longitude: -3.0064976,latitude: 51.7097463,roll: -0.2873264482689994
altitude_agl: null,angular_vel_z: 0.0008990656351670625,compass_hdg: 194.81,yaw: -104.80671130022911,angular_vel_y: -0.0015298903454095123,angular_vel_x: -0.0033364794217050076,pitch: 0.32612829937659377,linear_vel_x: 0.00980665,altitude_amsl: 0.08998356759548187,altitude_relative: 20.565,battery_volts: 12.192999839782715,ros_time: 1579810117,linear_vel_z: 9.7870367,linear_vel_y: -0.009806649999998801,longitude: -3.0064976,latitude: 51.7097463,roll: -0.2840676209416835
altitude_agl: null,angular_vel_z: -9.398907423019658e-06,compass_hdg: 194.81,yaw: -104.80973024384224,angular_vel_y: 0.0020336539018899202,angular_vel_x: -0.004041655920445919,pitch: 0.2723313815960463,linear_vel_x: 0.0,altitude_amsl: 0.08998356759548187,altitude_relative: 23.046,battery_volts: 12.192999839782715,ros_time: 1579810118,linear_vel_z: 9.85568325,linear_vel_y: 0.04903325000000121,longitude: -3.0064976,latitude: 51.7097464,roll: -0.30073426969229294
altitude_agl: null,angular_vel_z: 0.0011018041986972085,compass_hdg: 194.81,yaw: -104.80572775298866,angular_vel_y: 0.007939549162983894,angular_vel_x: -0.0050630951300263405,pitch: 0.25926146777368286,linear_vel_x: -0.02941995,altitude_amsl: 0.08998356759548187,altitude_relative: 25.53,battery_volts: 12.192999839782715,ros_time: 1579810119,linear_vel_z: 9.85568325,linear_vel_y: 1.2069730945522684e-15,longitude: -3.0064976,latitude: 51.7097464,roll: -0.24113542637693694
altitude_agl: null,angular_vel_z: 0.00031088083051145104,compass_hdg: 194.82,yaw: -104.81059084767769,angular_vel_y: -0.0023187072947621346,angular_vel_x: 0.0012927257921546698,pitch: 0.2505471602489517,linear_vel_x: -0.0196133,altitude_amsl: 0.08998356759548187,altitude_relative: 28.016,battery_volts: 12.192999839782715,ros_time: 1579810120,linear_vel_z: 9.8262633,linear_vel_y: -0.0294199499999988,longitude: -3.0064976,latitude: 51.7097464,roll: -0.3273843071319342
altitude_agl: null,angular_vel_z: 0.0006942233303561805,compass_hdg: 194.81,yaw: -104.8075719040645,angular_vel_y: 0.0021210010163486004,angular_vel_x: -0.0016992385499179363,pitch: 0.3438724104687729,linear_vel_x: 0.0588399,altitude_amsl: 0.08998356759548187,altitude_relative: 30.505,battery_volts: 12.192999839782715,ros_time: 1579810121,linear_vel_z: 9.73800345,linear_vel_y: 0.029419950000001194,longitude: -3.0064976,latitude: 51.7097465,roll: -0.32019593323689227
altitude_agl: null,angular_vel_z: 0.0005533093353733419,compass_hdg: 194.82,yaw: -104.81381469696593,angular_vel_y: 0.0008594815153628589,angular_vel_x: -0.00465279258787632,pitch: 0.2532049576097328,linear_vel_x: -0.0784532,altitude_amsl: 0.08998356759548187,altitude_relative: 32.995,battery_volts: 12.192999839782715,ros_time: 1579810122,linear_vel_z: 9.8654899,linear_vel_y: -0.009806649999998791,longitude: -3.0064978,latitude: 51.7097468,roll: -0.2228213546748188
altitude_agl: null,angular_vel_z: 0.000965423882007599,compass_hdg: 194.81,yaw: -104.80998979103073,angular_vel_y: -0.0007727250922471284,angular_vel_x: 0.002301168395206332,pitch: 0.26578731331923344,linear_vel_x: 0.02941995,altitude_amsl: 0.08998356759548187,altitude_relative: 35.487,battery_volts: 12.192999839782715,ros_time: 1579810123,linear_vel_z: 9.77723005,linear_vel_y: 0.049033250000001194,longitude: -3.0064979,latitude: 51.7097468,roll: -0.15606016422041846
altitude_agl: null,angular_vel_z: 0.0008866933640092616,compass_hdg: 194.82,yaw: -104.81160171567484,angular_vel_y: -0.003973999060690403,angular_vel_x: -0.00025703455321490765,pitch: 0.24310799034532346,linear_vel_x: 0.06864655,altitude_amsl: 0.08998356759548187,altitude_relative: 37.985,battery_volts: 12.192999839782715,ros_time: 1579810124,linear_vel_z: 9.79684335,linear_vel_y: -0.029419949999998803,longitude: -3.0064979,latitude: 51.7097469,roll: -0.23146713352422527
altitude_agl: null,angular_vel_z: 0.0007145775016397239,compass_hdg: 194.8,yaw: -104.79814624300992,angular_vel_y: -0.0010881356429308653,angular_vel_x: -0.0045471214689314365,pitch: 0.30157987912805395,linear_vel_x: 0.0196133,altitude_amsl: 0.08998356759548187,altitude_relative: 40.477,battery_volts: 12.192999839782715,ros_time: 1579810125,linear_vel_z: 9.80665,linear_vel_y: 1.2009682532858392e-15,longitude: -3.0064979,latitude: 51.7097469,roll: -0.3316168099419471
altitude_agl: null,angular_vel_z: 0.00032528443261980994,compass_hdg: 194.81,yaw: -104.80609658320381,angular_vel_y: 0.0011120851850137115,angular_vel_x: 0.005208650603890419,pitch: 0.337732764096019,linear_vel_x: 0.0392266,altitude_amsl: 0.08998356759548187,altitude_relative: 42.976,battery_volts: 12.192999839782715,ros_time: 1579810126,linear_vel_z: 9.83606995,linear_vel_y: 0.009806650000001204,longitude: -3.0064979,latitude: 51.709747,roll: -0.3503690676277906
altitude_agl: null,angular_vel_z: 0.000915745971724391,compass_hdg: 194.82,yaw: -104.81703854625417,angular_vel_y: -5.822256207466114e-05,angular_vel_x: 0.0016242933925241232,pitch: 0.3382096500383034,linear_vel_x: -0.0196133,altitude_amsl: 0.08998356759548187,altitude_relative: 45.47,battery_volts: 12.192999839782715,ros_time: 1579810127,linear_vel_z: 9.85568325,linear_vel_y: -0.019613299999998793,longitude: -3.0064979,latitude: 51.709747,roll: -0.28736887014704754
altitude_agl: null,angular_vel_z: 0.0008688583038747306,compass_hdg: 194.82,yaw: -104.80975756459891,angular_vel_y: 0.003324955003336072,angular_vel_x: -0.007281570229679346,pitch: 0.36495501664163377,linear_vel_x: 0.00980665,altitude_amsl: 0.08998356759548187,altitude_relative: 47.795,battery_volts: 12.192999839782715,ros_time: 1579810128,linear_vel_z: 9.12999115,linear_vel_y: 0.04903325000000112,longitude: -3.0064979,latitude: 51.709747,roll: -0.2974763228190497
altitude_agl: null,angular_vel_z: -0.00018571317195891746,compass_hdg: 194.81,yaw: -104.78163084559682,angular_vel_y: -0.04802250862121582,angular_vel_x: -0.19378623366355896,pitch: -0.6309329616078136,linear_vel_x: 0.0,altitude_amsl: 0.08998356759548187,altitude_relative: 49.246,battery_volts: 12.241999626159668,ros_time: 1579810129,linear_vel_z: 8.629852,linear_vel_y: 0.02941995000000106,longitude: -3.0064979,latitude: 51.709747,roll: -4.143725078398174
altitude_agl: null,angular_vel_z: -0.0009862137958407393,compass_hdg: 194.84,yaw: -104.83724224581907,angular_vel_y: -0.007930048741400242,angular_vel_x: -0.024286216124892235,pitch: -1.8112383152838534,linear_vel_x: 0.10787315,altitude_amsl: 0.08998356759548187,altitude_relative: 49.73,battery_volts: 12.241999626159668,ros_time: 1579810130,linear_vel_z: 9.42419065,linear_vel_y: -0.39226599999999884,longitude: -3.0064956,latitude: 51.709747,roll: -8.514032291001413
altitude_agl: null,angular_vel_z: 1.2702646255493164,compass_hdg: 174.51,yaw: -84.51727555840371,angular_vel_y: 0.05682072788476959,angular_vel_x: -0.03920360282063484,pitch: -1.5710607962575855,linear_vel_x: 0.20593965,altitude_amsl: 0.08998356759548187,altitude_relative: 49.865,battery_volts: 12.241999626159668,ros_time: 1579810131,linear_vel_z: 9.7085835,linear_vel_y: -0.9806649999999988,longitude: -3.0064819,latitude: 51.709747,roll: -12.010523094120476
altitude_agl: null,angular_vel_z: 0.9737213850021362,compass_hdg: 112.28,yaw: -5.949254365910186,angular_vel_y: 0.0446528270840646,angular_vel_x: -0.025376945734024048,pitch: 15.711248506253959,linear_vel_x: -1.4317709,altitude_amsl: 0.08998356759548187,altitude_relative: 49.922,battery_volts: 12.192999839782715,ros_time: 1579810132,linear_vel_z: 9.7478101,linear_vel_y: -0.6570455499999988,longitude: -3.0064558,latitude: 51.7097482,roll: 0.3635653933106437
altitude_agl: null,angular_vel_z: -0.39569932222366333,compass_hdg: 83.86,yaw: 0.2553782685886091,angular_vel_y: 0.10399124771356578,angular_vel_x: -0.1925278902053833,pitch: 19.1397200167498,linear_vel_x: -2.1378497,altitude_amsl: 0.08998356759548187,altitude_relative: 49.943,battery_volts: 12.192999839782715,ros_time: 1579810133,linear_vel_z: 9.62032365,linear_vel_y: 0.4020726500000012,longitude: -3.0064158,latitude: 51.7097483,roll: 0.009531642378559878
altitude_agl: null,angular_vel_z: -0.05461839586496353,compass_hdg: 94.86,yaw: -4.831630512021015,angular_vel_y: -0.012430804781615741,angular_vel_x: 0.10517583787441254,pitch: 11.197161115866905,linear_vel_x: -2.6085689,altitude_amsl: 0.08998356759548187,altitude_relative: 49.961,battery_volts: 12.241999626159668,ros_time: 1579810134,linear_vel_z: 9.48303055,linear_vel_y: -0.07845319999999885,longitude: -3.0063619,latitude: 51.7097459,roll: 4.2453984206093285
altitude_agl: null,angular_vel_z: -0.5745171308517456,compass_hdg: 108.58,yaw: -26.41562934590826,angular_vel_y: -0.06640898436307914,angular_vel_x: 0.17103879153728485,pitch: 7.88811290168779,linear_vel_x: -2.14765635,altitude_amsl: 0.08998356759548187,altitude_relative: 49.969,battery_volts: 12.241999626159668,ros_time: 1579810135,linear_vel_z: 9.6497436,linear_vel_y: -0.1667130499999988,longitude: -3.0063057,latitude: 51.7097429,roll: 6.2814675669063815
altitude_agl: null,angular_vel_z: -0.7150412201881409,compass_hdg: 147.39,yaw: -68.410378099193,angular_vel_y: 0.0673702657222747,angular_vel_x: -0.00894242338836193,pitch: 12.959447251925864,linear_vel_x: -1.6867438,altitude_amsl: 0.08998356759548187,altitude_relative: 49.964,battery_volts: 12.241999626159668,ros_time: 1579810136,linear_vel_z: 9.8654899,linear_vel_y: -0.43149259999999884,longitude: -3.0062631,latitude: 51.7097331,roll: 5.895658355222688
altitude_agl: null,angular_vel_z: -0.07574843615293503,compass_hdg: 174.82,yaw: -84.82701097688543,angular_vel_y: 0.04550515860319137,angular_vel_x: 0.015834275633096695,pitch: 16.487497797878614,linear_vel_x: -1.7455837,altitude_amsl: 0.08998356759548187,altitude_relative: 49.956,battery_volts: 12.192999839782715,ros_time: 1579810137,linear_vel_z: 9.73800345,linear_vel_y: -0.49033249999999884,longitude: -3.0062406,latitude: 51.7097133,roll: 1.418248120183244
altitude_agl: null,angular_vel_z: -0.10892629623413082,compass_hdg: 175.98,yaw: -85.98013815408038,angular_vel_y: -0.33779940009117126,angular_vel_x: 0.201833114027977,pitch: 15.739650140370172,linear_vel_x: -2.36340265,altitude_amsl: 0.08998356759548187,altitude_relative: 49.947,battery_volts: 12.192999839782715,ros_time: 1579810138,linear_vel_z: 9.6497436,linear_vel_y: -0.10787314999999882,longitude: -3.0062306,latitude: 51.7096839,roll: 3.260180131658374
altitude_agl: null,angular_vel_z: -0.42959359288215637,compass_hdg: 195.84,yaw: -112.28061847875888,angular_vel_y: 0.010169144719839044,angular_vel_x: 0.0965346246957779,pitch: 13.805493392905241,linear_vel_x: -2.36340265,altitude_amsl: 0.08998356759548187,altitude_relative: 49.952,battery_volts: 12.192999839782715,ros_time: 1579810139,linear_vel_z: 9.6301303,linear_vel_y: -0.27458619999999884,longitude: -3.0062303,latitude: 51.7096492,roll: 4.9336027318511215
altitude_agl: null,angular_vel_z: -0.1973039209842682,compass_hdg: 217.49,yaw: -130.77153882624918,angular_vel_y: 0.053019721060991266,angular_vel_x: 0.02284727245569229,pitch: 17.41165483597991,linear_vel_x: -2.38301595,altitude_amsl: 0.08998356759548187,altitude_relative: 49.953,battery_volts: 12.192999839782715,ros_time: 1579810140,linear_vel_z: 9.6497436,linear_vel_y: -0.3824593499999988,longitude: -3.0062457,latitude: 51.7096174,roll: 2.658464157998935
altitude_agl: null,angular_vel_z: -0.04584622755646705,compass_hdg: 226.32,yaw: -137.2214503840323,angular_vel_y: -0.03147916123270989,angular_vel_x: -0.11168695241212845,pitch: 20.496309991582944,linear_vel_x: -2.6281822,altitude_amsl: 0.08998356759548187,altitude_relative: 49.954,battery_volts: 12.192999839782715,ros_time: 1579810141,linear_vel_z: 9.44380395,linear_vel_y: -0.30400614999999886,longitude: -3.0062775,latitude: 51.7095883,roll: 0.6417600387419001
altitude_agl: null,angular_vel_z: 0.22019603848457336,compass_hdg: 222.57,yaw: -132.5685069553662,angular_vel_y: 0.05989792943000796,angular_vel_x: 0.008971082046627998,pitch: 18.307888353206884,linear_vel_x: -2.93218835,altitude_amsl: 0.08998356759548187,altitude_relative: 49.962,battery_volts: 12.192999839782715,ros_time: 1579810142,linear_vel_z: 9.3947707,linear_vel_y: -0.07845319999999885,longitude: -3.0063228,latitude: 51.7095592,roll: -3.5278908902809074
altitude_agl: null,angular_vel_z: 0.0805785059928894,compass_hdg: 212.82,yaw: -122.8156525187483,angular_vel_y: 0.04226892068982125,angular_vel_x: -0.03749743849039078,pitch: 20.76587365246125,linear_vel_x: -2.97141495,altitude_amsl: 0.08998356759548187,altitude_relative: 49.969,battery_volts: 12.192999839782715,ros_time: 1579810143,linear_vel_z: 9.36535075,linear_vel_y: 0.17651970000000114,longitude: -3.0063684,latitude: 51.7095268,roll: -2.544176523607814
altitude_agl: null,angular_vel_z: 0.06684119254350662,compass_hdg: 208.56,yaw: -118.55752134486558,angular_vel_y: 0.04567155987024308,angular_vel_x: -0.0010293403174728155,pitch: 23.560471164581347,linear_vel_x: -3.2558078,altitude_amsl: 0.08998356759548187,altitude_relative: 49.976,battery_volts: 12.192999839782715,ros_time: 1579810144,linear_vel_z: 9.2770909,linear_vel_y: 0.009806650000001136,longitude: -3.0064113,latitude: 51.7094891,roll: -2.251186807980247
altitude_agl: null,angular_vel_z: 0.014220716431736943,compass_hdg: 206.25,yaw: -116.24275657476993,angular_vel_y: 0.027888843789696697,angular_vel_x: -0.007712687365710735,pitch: 25.568307723944155,linear_vel_x: -3.54020065,altitude_amsl: 0.08998356759548187,altitude_relative: 49.981,battery_volts: 12.192999839782715,ros_time: 1579810145,linear_vel_z: 9.12999115,linear_vel_y: 0.07845320000000111,longitude: -3.0064525,latitude: 51.7094447,roll: -1.5442540113125829
altitude_agl: null,angular_vel_z: 0.012872408144176003,compass_hdg: 205.49,yaw: -115.48297999187606,angular_vel_y: 0.021253429353237152,angular_vel_x: 0.0002470205072313547,pitch: 26.816191823041947,linear_vel_x: -3.83440015,altitude_amsl: 0.08998356759548187,altitude_relative: 49.987,battery_volts: 12.192999839782715,ros_time: 1579810146,linear_vel_z: 9.0417313,linear_vel_y: -0.0588398999999989,longitude: -3.0064946,latitude: 51.7093942,roll: -1.3876322241154897
altitude_agl: null,angular_vel_z: 0.0027911213692277644,compass_hdg: 205.08,yaw: -115.07825030241777,angular_vel_y: 0.01994389295578003,angular_vel_x: -0.005905441008508205,pitch: 27.818052508235883,linear_vel_x: -4.1482129500000005,altitude_amsl: 0.08998356759548187,altitude_relative: 49.992,battery_volts: 12.192999839782715,ros_time: 1579810147,linear_vel_z: 8.8848249,linear_vel_y: -0.20593964999999892,longitude: -3.0065378,latitude: 51.7093388,roll: -1.247172158598526
altitude_agl: null,angular_vel_z: 0.002653900999575851,compass_hdg: 204.91,yaw: -114.90533723338974,angular_vel_y: 0.017017215490341187,angular_vel_x: -0.003760639112442732,pitch: 28.74667819760164,linear_vel_x: -4.2953127,altitude_amsl: 0.08998356759548187,altitude_relative: 49.996,battery_volts: 12.192999839782715,ros_time: 1579810148,linear_vel_z: 8.7867584,linear_vel_y: -0.16671304999999892,longitude: -3.0065828,latitude: 51.7092796,roll: -1.2569765749869657
altitude_agl: null,angular_vel_z: 0.00178808474447578,compass_hdg: 204.86,yaw: -114.85651504120244,angular_vel_y: 0.01567641645669937,angular_vel_x: -0.006656610406935215,pitch: 29.335594183313084,linear_vel_x: -4.4522191,altitude_amsl: 0.08998356759548187,altitude_relative: 49.996,battery_volts: 12.192999839782715,ros_time: 1579810149,linear_vel_z: 8.7671451,linear_vel_y: -0.18632634999999892,longitude: -3.0066294,latitude: 51.7092175,roll: -1.3303409175225367
altitude_agl: null,angular_vel_z: -0.0033370337914675257,compass_hdg: 204.75,yaw: -114.74507367470454,angular_vel_y: -0.17746827006340027,angular_vel_x: -0.004009965341538191,pitch: 25.140893268704975,linear_vel_x: -4.65815875,altitude_amsl: 0.08998356759548187,altitude_relative: 49.999,battery_volts: 12.192999839782715,ros_time: 1579810150,linear_vel_z: 8.75733845,linear_vel_y: -0.22555294999999892,longitude: -3.0066775,latitude: 51.709153,roll: -1.4038621409656133
altitude_agl: null,angular_vel_z: 0.0002841604873538122,compass_hdg: 204.85,yaw: -114.84666590841931,angular_vel_y: -0.0855829268693924,angular_vel_x: -0.0001239024568349123,pitch: 21.261781244697318,linear_vel_x: -4.4129925,altitude_amsl: 0.08998356759548187,altitude_relative: 50.009,battery_volts: 12.192999839782715,ros_time: 1579810151,linear_vel_z: 8.77695175,linear_vel_y: -0.25497289999999895,longitude: -3.0067244,latitude: 51.7090899,roll: -1.4372223856975455
altitude_agl: null,angular_vel_z: -0.0040313862264156255,compass_hdg: 204.97,yaw: -114.96141308647553,angular_vel_y: -0.06920191645622253,angular_vel_x: 0.0010299328714609146,pitch: 17.2035423870642,linear_vel_x: -3.97169325,altitude_amsl: 0.08998356759548187,altitude_relative: 50.004,battery_volts: 12.192999839782715,ros_time: 1579810152,linear_vel_z: 8.97308475,linear_vel_y: -0.1961329999999989,longitude: -3.0067651,latitude: 51.7090338,roll: -1.2888596845891687
altitude_agl: null,angular_vel_z: -0.00807462912052869,compass_hdg: 205.37,yaw: -115.363861492751,angular_vel_y: -0.06478339433670044,angular_vel_x: 0.0068425824865698814,pitch: 12.934623783161104,linear_vel_x: -3.334261,altitude_amsl: 0.08998356759548187,altitude_relative: 49.994,battery_volts: 12.241999626159668,ros_time: 1579810153,linear_vel_z: 9.32612415,linear_vel_y: -0.23535959999999886,longitude: -3.0067995,latitude: 51.7089862,roll: -0.9728141318096902
altitude_agl: null,angular_vel_z: -0.0188748575747013,compass_hdg: 206.19,yaw: -116.18668072168411,angular_vel_y: -0.07343290001153946,angular_vel_x: 0.01455717347562313,pitch: 8.676809359301156,linear_vel_x: -2.5889556000000002,altitude_amsl: 0.08998356759548187,altitude_relative: 49.985,battery_volts: 12.241999626159668,ros_time: 1579810154,linear_vel_z: 9.5320638,linear_vel_y: -0.1961329999999988,longitude: -3.0068273,latitude: 51.7089475,roll: -0.6003638630080426
altitude_agl: null,angular_vel_z: -0.04059457406401633,compass_hdg: 207.93,yaw: -117.92755933733697,angular_vel_y: -0.08906687051057816,angular_vel_x: 0.009757205843925476,pitch: 3.9451855664910673,linear_vel_x: -1.91229675,altitude_amsl: 0.08998356759548187,altitude_relative: 49.975,battery_volts: 12.241999626159668,ros_time: 1579810155,linear_vel_z: 9.6889702,linear_vel_y: -0.1372930999999988,longitude: -3.0068487,latitude: 51.7089185,roll: -0.19451119440068157
altitude_agl: null,angular_vel_z: 0.001987266354262845,compass_hdg: 210.55,yaw: -120.54128148740406,angular_vel_y: -0.13267864286899567,angular_vel_x: 0.005248020403087139,pitch: -2.166603452846095,linear_vel_x: -1.176798,altitude_amsl: 0.08998356759548187,altitude_relative: 49.969,battery_volts: 12.241999626159668,ros_time: 1579810156,linear_vel_z: 9.8458766,linear_vel_y: -0.1274864499999988,longitude: -3.0068585,latitude: 51.7089059,roll: 0.29531958386691115
altitude_agl: null,angular_vel_z: 0.0008675296558067262,compass_hdg: 209.55,yaw: -119.54895062364962,angular_vel_y: -0.0488930344581604,angular_vel_x: 0.04200892895460129,pitch: -3.903382247449645,linear_vel_x: -0.2549729,altitude_amsl: 0.08998356759548187,altitude_relative: 49.963,battery_volts: 12.241999626159668,ros_time: 1579810157,linear_vel_z: 9.87529655,linear_vel_y: -0.03922659999999879,longitude: -3.0068691,latitude: 51.7088933,roll: 0.8349176283873034
altitude_agl: null,angular_vel_z: 0.006541860289871697,compass_hdg: 209.97,yaw: -119.96281910621737,angular_vel_y: -0.03193927928805351,angular_vel_x: 0.03532244637608528,pitch: -5.902766874601374,linear_vel_x: 0.2549729,altitude_amsl: 0.08998356759548187,altitude_relative: 49.96,battery_volts: 12.241999626159668,ros_time: 1579810158,linear_vel_z: 9.81645665,linear_vel_y: 0.1470997500000012,longitude: -3.0068721,latitude: 51.7088909,roll: 3.0085397409358245
altitude_agl: null,angular_vel_z: 0.002878348343074325,compass_hdg: 209.79,yaw: -119.78243381023734,angular_vel_y: -0.028124285861849785,angular_vel_x: 0.0232965350151062,pitch: -7.0938408752775866,linear_vel_x: 0.75511205,altitude_amsl: 0.08998356759548187,altitude_relative: 49.962,battery_volts: 12.241999626159668,ros_time: 1579810159,linear_vel_z: 9.8262633,linear_vel_y: 0.3236194500000012,longitude: -3.0068718,latitude: 51.7088963,roll: 4.1402775404146075
altitude_agl: null,angular_vel_z: -1.4531307220458984,compass_hdg: 242.33,yaw: -152.3268235448657,angular_vel_y: 0.07672770321369153,angular_vel_x: 0.14478394389152527,pitch: -7.240730496681055,linear_vel_x: 0.93163175,altitude_amsl: 0.08998356759548187,altitude_relative: 49.96,battery_volts: 12.241999626159668,ros_time: 1579810160,linear_vel_z: 9.7478101,linear_vel_y: 0.8727918500000013,longitude: -3.0068707,latitude: 51.7089151,roll: 9.729802548169094
altitude_agl: null,angular_vel_z: -0.9306968450546265,compass_hdg: 316.35,yaw: 133.65203951387497,angular_vel_y: 0.004378565587103253,angular_vel_x: 0.07641813158988953,pitch: 12.367749671674959,linear_vel_x: -0.99047165,altitude_amsl: 0.08998356759548187,altitude_relative: 49.968,battery_volts: 12.192999839782715,ros_time: 1579810161,linear_vel_z: 9.7085835,linear_vel_y: 1.5298374000000012,longitude: -3.0068674,latitude: 51.7089369,roll: 10.272543039996638
altitude_agl: null,angular_vel_z: -0.6276184916496277,compass_hdg: 8.17,yaw: 81.82153319537403,angular_vel_y: 0.031208399683237,angular_vel_x: -0.28465181589126587,pitch: 19.466027181705297,linear_vel_x: -2.3143694,altitude_amsl: 0.08998356759548187,altitude_relative: 49.967,battery_volts: 12.192999839782715,ros_time: 1579810162,linear_vel_z: 9.5909037,linear_vel_y: 0.13729310000000117,longitude: -3.0068666,latitude: 51.708954,roll: -5.317869174556056
altitude_agl: null,angular_vel_z: 0.25494930148124695,compass_hdg: 359.66,yaw: 90.34515768665193,angular_vel_y: 0.0644887834787369,angular_vel_x: 0.08720260113477707,pitch: 23.323881949468575,linear_vel_x: -2.8439285,altitude_amsl: 0.08998356759548187,altitude_relative: 49.966,battery_volts: 12.192999839782715,ros_time: 1579810163,linear_vel_z: 9.48303055,linear_vel_y: -0.5982056499999988,longitude: -3.0068652,latitude: 51.7089895,roll: 2.2270395279432953
altitude_agl: null,angular_vel_z: -0.09487093985080719,compass_hdg: 4.07,yaw: 85.9221520961466,angular_vel_y: 0.02283588796854018,angular_vel_x: -0.0295020192861557,pitch: 24.684938868018893,linear_vel_x: -3.4127142,altitude_amsl: 0.08998356759548187,altitude_relative: 49.97,battery_volts: 12.192999839782715,ros_time: 1579810164,linear_vel_z: 9.16921775,linear_vel_y: -0.09806649999999889,longitude: -3.006865,latitude: 51.7090538,roll: -2.692719691120682
altitude_agl: null,angular_vel_z: 0.03901819512248039,compass_hdg: 1.95,yaw: 88.04394438539552,angular_vel_y: 0.012335055507719522,angular_vel_x: 0.0012594466097652912,pitch: 25.947470307791782,linear_vel_x: -3.7853669,altitude_amsl: 0.08998356759548187,altitude_relative: 49.973,battery_volts: 12.192999839782715,ros_time: 1579810165,linear_vel_z: 8.99269805,linear_vel_y: -0.2745861999999989,longitude: -3.0068631,latitude: 51.7090859,roll: -0.5407476774155131
altitude_agl: null,angular_vel_z: -0.009631022810935976,compass_hdg: 2.89,yaw: 87.10558546301908,angular_vel_y: 0.015047633089125155,angular_vel_x: -0.0007635883521288633,pitch: 27.03170136682877,linear_vel_x: -3.99130655,altitude_amsl: 0.08998356759548187,altitude_relative: 49.979,battery_volts: 12.192999839782715,ros_time: 1579810166,linear_vel_z: 8.97308475,linear_vel_y: -0.1863263499999989,longitude: -3.0068599,latitude: 51.7091436,roll: -1.7221220624183657
altitude_agl: null,angular_vel_z: 0.008681530132889746,compass_hdg: 2.35,yaw: 87.64848390297121,angular_vel_y: 0.018976010382175446,angular_vel_x: 0.007435432635247707,pitch: 27.82298390481663,linear_vel_x: -4.1972462,altitude_amsl: 0.08998356759548187,altitude_relative: 49.983,battery_volts: 12.192999839782715,ros_time: 1579810167,linear_vel_z: 8.8652116,linear_vel_y: -0.18632634999999892,longitude: -3.0068557,latitude: 51.7092056,roll: -1.3338275156504331
altitude_agl: null,angular_vel_z: 0.0013326057232916336,compass_hdg: 2.47,yaw: 87.52846830118737,angular_vel_y: 0.01529743243008852,angular_vel_x: 0.0017125909216701984,pitch: 28.628746443844914,linear_vel_x: -4.40318585,altitude_amsl: 0.08998356759548187,altitude_relative: 49.985,battery_volts: 12.192999839782715,ros_time: 1579810168,linear_vel_z: 8.7671451,linear_vel_y: -0.22555294999999892,longitude: -3.0068512,latitude: 51.7092709,roll: -1.5877869690396196
altitude_agl: null,angular_vel_z: 0.004925669636577366,compass_hdg: 2.29,yaw: 87.70747838126671,angular_vel_y: 0.01367988996207714,angular_vel_x: 0.004059086553752422,pitch: 29.408281056460346,linear_vel_x: -4.4914457,altitude_amsl: 0.08998356759548187,altitude_relative: 49.986,battery_volts: 12.192999839782715,ros_time: 1579810169,linear_vel_z: 8.7279185,linear_vel_y: -0.17651969999999892,longitude: -3.0068463,latitude: 51.7093391,roll: -1.4977715858028993
altitude_agl: null,angular_vel_z: 0.0026610523927956802,compass_hdg: 2.21,yaw: 87.78648125840554,angular_vel_y: 0.01409695204347372,angular_vel_x: -0.005170512944459915,pitch: 29.970050455315555,linear_vel_x: -4.6287388,altitude_amsl: 0.08998356759548187,altitude_relative: 49.987,battery_volts: 12.192999839782715,ros_time: 1579810170,linear_vel_z: 8.73772515,linear_vel_y: -0.23535959999999892,longitude: -3.0068409,latitude: 51.7094096,roll: -1.6746538485123714
altitude_agl: null,angular_vel_z: 0.0031561073847115027,compass_hdg: 2.09,yaw: 87.90419039068401,angular_vel_y: 0.011683659628033638,angular_vel_x: 0.0025609007570892572,pitch: 30.478168718240322,linear_vel_x: -4.7268053,altitude_amsl: 0.08998356759548187,altitude_relative: 49.99,battery_volts: 12.192999839782715,ros_time: 1579810171,linear_vel_z: 8.6102387,linear_vel_y: -0.22555294999999895,longitude: -3.0068354,latitude: 51.7094825,roll: -1.6109536900438315
altitude_agl: null,angular_vel_z: 0.0029560588300228106,compass_hdg: 2.01,yaw: 87.98534499085481,angular_vel_y: 0.011188258416950703,angular_vel_x: -0.001804998842999339,pitch: 30.931597656480783,linear_vel_x: -4.69738535,altitude_amsl: 0.08998356759548187,altitude_relative: 49.99,battery_volts: 12.192999839782715,ros_time: 1579810172,linear_vel_z: 8.5317855,linear_vel_y: -0.16671304999999895,longitude: -3.0068297,latitude: 51.7095572,roll: -1.6767725945372434
altitude_agl: null,angular_vel_z: 0.002586691407486795,compass_hdg: 1.93,yaw: 88.06310456012132,angular_vel_y: 0.00935367587953806,angular_vel_x: -0.005521895829588175,pitch: 31.269104624127785,linear_vel_x: -4.8248718,altitude_amsl: 0.08998356759548187,altitude_relative: 49.989,battery_volts: 12.192999839782715,ros_time: 1579810173,linear_vel_z: 8.4729456,linear_vel_y: -0.20593964999999895,longitude: -3.006824,latitude: 51.7096337,roll: -1.7612467733663741
altitude_agl: null,angular_vel_z: 0.002455809153616428,compass_hdg: 1.85,yaw: 88.14499703416587,angular_vel_y: 0.002386603504419327,angular_vel_x: 0.004022733308374882,pitch: 31.65039993454374,linear_vel_x: -4.9817782,altitude_amsl: 0.08998356759548187,altitude_relative: 49.99,battery_volts: 12.192999839782715,ros_time: 1579810174,linear_vel_z: 8.52197885,linear_vel_y: -0.20593964999999895,longitude: -3.0068162,latitude: 51.7097433,roll: -1.8960782293987277
altitude_agl: null,angular_vel_z: 0.002293061697855591,compass_hdg: 1.81,yaw: 88.18035927137655,angular_vel_y: 0.006188742816448212,angular_vel_x: 0.0010185232385993004,pitch: 31.99849711049886,linear_vel_x: -4.9621649,altitude_amsl: 0.08998356759548187,altitude_relative: 49.991,battery_volts: 12.192999839782715,ros_time: 1579810175,linear_vel_z: 8.5121722,linear_vel_y: -0.22555294999999895,longitude: -3.0068129,latitude: 51.709791,roll: -1.9115710194270104
altitude_agl: null,angular_vel_z: 0.0015245617832988496,compass_hdg: 1.77,yaw: 88.22732418571809,angular_vel_y: 0.003913014195859432,angular_vel_x: -0.008205913007259369,pitch: 32.21583714498325,linear_vel_x: -5.05042475,altitude_amsl: 0.08998356759548187,altitude_relative: 49.991,battery_volts: 12.142999649047852,ros_time: 1579810176,linear_vel_z: 8.42391235,linear_vel_y: -0.19613299999999895,longitude: -3.0068074,latitude: 51.7098717,roll: -1.913594889855446
altitude_agl: null,angular_vel_z: -0.023443367332220057,compass_hdg: 1.9,yaw: 88.09936368654738,angular_vel_y: -0.16219550371170044,angular_vel_x: 0.22867938876152039,pitch: 30.956674696018478,linear_vel_x: -5.1582979,altitude_amsl: 0.08998356759548187,altitude_relative: 49.993,battery_volts: 12.142999649047852,ros_time: 1579810177,linear_vel_z: 8.36507245,linear_vel_y: -0.215746299999999,longitude: -3.006802,latitude: 51.7099533,roll: 0.005695639470349511
altitude_agl: null,angular_vel_z: -0.15920132398605347,compass_hdg: 9.45,yaw: 80.54329829692561,angular_vel_y: -0.03964986279606821,angular_vel_x: 0.11215776205062866,pitch: 27.92873913883052,linear_vel_x: -5.03081145,altitude_amsl: 0.08998356759548187,altitude_relative: 50.002,battery_volts: 12.192999839782715,ros_time: 1579810178,linear_vel_z: 8.4533323,linear_vel_y: -0.529559099999999,longitude: -3.0067958,latitude: 51.7100356,roll: 2.237959079435434
altitude_agl: null,angular_vel_z: -0.17455051839351654,compass_hdg: 19.84,yaw: 70.15249821541303,angular_vel_y: -0.00667617190629246,angular_vel_x: 0.11281003057956696,pitch: 27.158596036323853,linear_vel_x: -4.7268053,altitude_amsl: 0.08998356759548187,altitude_relative: 49.991,battery_volts: 12.192999839782715,ros_time: 1579810179,linear_vel_z: 8.71811185,linear_vel_y: -0.8433718999999988,longitude: -3.0067808,latitude: 51.710113,roll: 4.091196227925705
altitude_agl: null,angular_vel_z: 0.002747301012277605,compass_hdg: 26.4,yaw: 63.596013508462896,angular_vel_y: -0.014419936574995518,angular_vel_x: 0.17265386879444122,pitch: 22.67906940313705,linear_vel_x: -4.52086565,altitude_amsl: 0.08998356759548187,altitude_relative: 49.985,battery_volts: 12.192999839782715,ros_time: 1579810180,linear_vel_z: 8.7083052,linear_vel_y: -0.608012299999999,longitude: -3.00675,latitude: 51.7101831,roll: -0.024661636970648722
altitude_agl: null,angular_vel_z: -0.20927484333515167,compass_hdg: 32.43,yaw: 57.56169676356026,angular_vel_y: -0.04384936392307284,angular_vel_x: 0.10526668280363083,pitch: 19.845430529721156,linear_vel_x: -4.0991797,altitude_amsl: 0.08998356759548187,altitude_relative: 49.978,battery_volts: 12.192999839782715,ros_time: 1579810181,linear_vel_z: 9.05153795,linear_vel_y: -0.4707191999999989,longitude: -3.0067079,latitude: 51.7102454,roll: 3.2943362001503016
altitude_agl: null,angular_vel_z: -0.30416199564933777,compass_hdg: 48.32,yaw: 41.67575592399945,angular_vel_y: -0.02668408490717415,angular_vel_x: 0.12177347391843796,pitch: 18.7613053386163,linear_vel_x: -3.6676871,altitude_amsl: 0.08998356759548187,altitude_relative: 49.968,battery_volts: 12.192999839782715,ros_time: 1579810182,linear_vel_z: 9.20844435,linear_vel_y: -0.6962721499999989,longitude: -3.0066601,latitude: 51.7102974,roll: 5.688909382820036
altitude_agl: null,angular_vel_z: 0.10744993388652802,compass_hdg: 53.24,yaw: 36.753423004278865,angular_vel_y: -0.04854648187756537,angular_vel_x: 0.06090883910655975,pitch: 13.736695458716635,linear_vel_x: -3.2558078,altitude_amsl: 0.08998356759548187,altitude_relative: 49.961,battery_volts: 12.192999839782715,ros_time: 1579810183,linear_vel_z: 9.2378643,linear_vel_y: -0.5883989999999989,longitude: -3.006604,latitude: 51.7103368,roll: -0.36701810729695855
altitude_agl: null,angular_vel_z: -0.0458775982260704,compass_hdg: 52.7,yaw: 37.2970992320227,angular_vel_y: -0.07865317910909653,angular_vel_x: -0.018945962190628052,pitch: 9.376567362410832,linear_vel_x: -2.75566865,altitude_amsl: 0.08998356759548187,altitude_relative: 49.963,battery_volts: 12.241999626159668,ros_time: 1579810184,linear_vel_z: 9.4732239,linear_vel_y: -0.12748644999999884,longitude: -3.0065472,latitude: 51.7103665,roll: -1.2083774311648021
altitude_agl: null,angular_vel_z: 0.04116609320044519,compass_hdg: 52.1,yaw: 37.89791682236287,angular_vel_y: -0.09828980267047882,angular_vel_x: 0.0032346697989851236,pitch: 4.495475551785591,linear_vel_x: -2.1378497,altitude_amsl: 0.08998356759548187,altitude_relative: 49.971,battery_volts: 12.241999626159668,ros_time: 1579810185,linear_vel_z: 9.69877685,linear_vel_y: -0.1569063999999988,longitude: -3.0064989,latitude: 51.7103893,roll: -1.380050500693372
altitude_agl: null,angular_vel_z: -0.0057643251493572955,compass_hdg: 50.76,yaw: 39.2326689748722,angular_vel_y: -0.18799878656864166,angular_vel_x: 0.021979067474603653,pitch: -2.7053549007549584,linear_vel_x: -1.372931,altitude_amsl: 0.08998356759548187,altitude_relative: 49.978,battery_volts: 12.241999626159668,ros_time: 1579810186,linear_vel_z: 9.8458766,linear_vel_y: -0.1274864499999988,longitude: -3.0064629,latitude: 51.7104066,roll: -1.063454477355473
altitude_agl: null,angular_vel_z: 0.006258133798837663,compass_hdg: 51.22,yaw: 38.77713975346196,angular_vel_y: -0.004565367475152015,angular_vel_x: 0.08587723225355148,pitch: -5.4033455769241705,linear_vel_x: -0.36284605000000003,altitude_amsl: 0.08998356759548187,altitude_relative: 49.979,battery_volts: 12.241999626159668,ros_time: 1579810187,linear_vel_z: 9.83606995,linear_vel_y: 0.029419950000001208,longitude: -3.0064422,latitude: 51.7104171,roll: 3.0130130879553496
altitude_agl: null,angular_vel_z: -0.005859291646629576,compass_hdg: 50.95,yaw: 39.04010545160202,angular_vel_y: 0.03711545839905739,angular_vel_x: 0.03741798922419548,pitch: -4.402158519137126,linear_vel_x: 0.32361945000000003,altitude_amsl: 0.08998356759548187,altitude_relative: 49.976,battery_volts: 12.241999626159668,ros_time: 1579810188,linear_vel_z: 9.83606995,linear_vel_y: 0.4020726500000012,longitude: -3.0064374,latitude: 51.7104184,roll: 7.093319219579719
altitude_agl: null,angular_vel_z: -1.0879369974136353,compass_hdg: 65.39,yaw: 24.603875678470995,angular_vel_y: 0.002886013127863274,angular_vel_x: 0.054222822189331055,pitch: -4.4609135139248695,linear_vel_x: 0.55897905,altitude_amsl: 0.08998356759548187,altitude_relative: 49.965,battery_volts: 12.241999626159668,ros_time: 1579810189,linear_vel_z: 9.77723005,linear_vel_y: 0.9904716500000013,longitude: -3.0064374,latitude: 51.7104103,roll: 10.578491118583605
altitude_agl: null,angular_vel_z: -1.0875723361968994,compass_hdg: 144.51,yaw: -54.51306049685975,angular_vel_y: 0.026146378368139135,angular_vel_x: 0.002533030929043889,pitch: 14.86670756821293,linear_vel_x: -1.1375714000000001,altitude_amsl: 0.08998356759548187,altitude_relative: 49.963,battery_volts: 12.192999839782715,ros_time: 1579810190,linear_vel_z: 9.73800345,linear_vel_y: 1.1571847000000013,longitude: -3.0064359,latitude: 51.710394,roll: 3.194036366292556
altitude_agl: null,angular_vel_z: 0.2258932888507843,compass_hdg: 174.25,yaw: -84.25476406784342,angular_vel_y: 0.04702115803956988,angular_vel_x: 0.09904438257217407,pitch: 17.439622753083814,linear_vel_x: -2.10842975,altitude_amsl: 0.08998356759548187,altitude_relative: 49.958,battery_volts: 12.192999839782715,ros_time: 1579810191,linear_vel_z: 9.6497436,linear_vel_y: -0.45110589999999884,longitude: -3.0064303,latitude: 51.7103697,roll: -6.035810848783588
altitude_agl: null,angular_vel_z: -0.27344629168510437,compass_hdg: 166.3,yaw: -76.30801655345202,angular_vel_y: -0.18662628531455996,angular_vel_x: 0.07418055832386017,pitch: 15.369605859064512,linear_vel_x: -2.745862,altitude_amsl: 0.08998356759548187,altitude_relative: 49.96,battery_volts: 12.192999839782715,ros_time: 1579810192,linear_vel_z: 9.52225715,linear_vel_y: -0.20593964999999886,longitude: -3.0064172,latitude: 51.7103374,roll: 4.328196535049172
altitude_agl: null,angular_vel_z: -0.20717556774616241,compass_hdg: 186.99,yaw: -96.9854890024042,angular_vel_y: 0.013464409857988332,angular_vel_x: 0.0923633947968483,pitch: 16.421239840287623,linear_vel_x: -2.69682875,altitude_amsl: 0.08998356759548187,altitude_relative: 49.972,battery_volts: 12.192999839782715,ros_time: 1579810193,linear_vel_z: 9.463417250000001,linear_vel_y: -0.6472388999999988,longitude: -3.006404,latitude: 51.7102985,roll: 0.997052658905069
altitude_agl: null,angular_vel_z: -0.14367948472499847,compass_hdg: 196.07,yaw: -106.06890293809082,angular_vel_y: 0.05454747378826139,angular_vel_x: 0.011612741276621819,pitch: 19.2991161414104,linear_vel_x: -2.67721545,altitude_amsl: 0.08998356759548187,altitude_relative: 49.979,battery_volts: 12.192999839782715,ros_time: 1579810194,linear_vel_z: 9.54187045,linear_vel_y: -0.6668521999999989,longitude: -3.0064007,latitude: 51.710259,roll: 1.0135832108003773
altitude_agl: null,angular_vel_z: 0.18317089974880219,compass_hdg: 197.94,yaw: -107.93328503431582,angular_vel_y: -0.07605172693729398,angular_vel_x: -0.09852041304111481,pitch: 13.307110710868688,linear_vel_x: -2.91257505,altitude_amsl: 0.08998356759548187,altitude_relative: 49.989,battery_volts: 12.192999839782715,ros_time: 1579810195,linear_vel_z: 9.40457735,linear_vel_y: -0.5687856999999988,longitude: -3.0064099,latitude: 51.7102193,roll: -5.8022170985086845
altitude_agl: null,angular_vel_z: 0.47902563214302063,compass_hdg: 176.51,yaw: -86.51100777713043,angular_vel_y: -0.047825451940298025,angular_vel_x: -0.17873208224773407,pitch: 13.150752312841462,linear_vel_x: -2.67721545,altitude_amsl: 0.08998356759548187,altitude_relative: 49.995,battery_volts: 12.241999626159668,ros_time: 1579810196,linear_vel_z: 9.4536106,linear_vel_y: -0.07845319999999885,longitude: -3.0064259,latitude: 51.7101786,roll: -8.994863948191966
altitude_agl: null,angular_vel_z: 0.2013947367668152,compass_hdg: 147.69,yaw: -57.6913934044768,angular_vel_y: -0.28241798281669617,angular_vel_x: 0.3676097095012665,pitch: 14.614349153853883,linear_vel_x: -2.5301157,altitude_amsl: 0.08998356759548187,altitude_relative: 49.986,battery_volts: 12.192999839782715,ros_time: 1579810197,linear_vel_z: 9.639936950000001,linear_vel_y: 0.1765197000000012,longitude: -3.0064284,latitude: 51.710141,roll: -3.086172738259251
altitude_agl: null,angular_vel_z: -0.055380783975124345,compass_hdg: 157.17,yaw: -67.17690057660207,angular_vel_y: -0.124115951359272,angular_vel_x: 0.1014769971370697,pitch: 5.2116315584320105,linear_vel_x: -2.1966896,altitude_amsl: 0.08998356759548187,altitude_relative: 49.988,battery_volts: 12.241999626159668,ros_time: 1579810198,linear_vel_z: 9.6301303,linear_vel_y: -0.3824593499999988,longitude: -3.0064089,latitude: 51.7101074,roll: -4.771519354638957
altitude_agl: null,angular_vel_z: 0.009565461426973365,compass_hdg: 153.13,yaw: -63.13319636152273,angular_vel_y: -0.19037243723869324,angular_vel_x: 0.06928732991218567,pitch: -1.9125473095914842,linear_vel_x: -1.3533177,altitude_amsl: 0.08998356759548187,altitude_relative: 49.98,battery_volts: 12.241999626159668,ros_time: 1579810199,linear_vel_z: 9.83606995,linear_vel_y: -0.43149259999999884,longitude: -3.0063844,latitude: 51.7100815,roll: -0.9620920154732402
altitude_agl: null,angular_vel_z: 0.009471320547163481,compass_hdg: 154.8,yaw: -64.80894229325034,angular_vel_y: 0.04693664610385895,angular_vel_x: 0.016315635293722153,pitch: -4.705592234335879,linear_vel_x: -0.30400615,altitude_amsl: 0.08998356759548187,altitude_relative: 49.967,battery_volts: 12.241999626159668,ros_time: 1579810200,linear_vel_z: 9.9047165,linear_vel_y: -0.14709974999999878,longitude: -3.0063652,latitude: 51.710067,roll: 1.6128796966680463
altitude_agl: null,angular_vel_z: -0.000551583012565978,compass_hdg: 154.1,yaw: -64.09466843060709,angular_vel_y: 0.062324877828359604,angular_vel_x: 0.0008682212792336941,pitch: -1.3886679582700974,linear_vel_x: 0.1765197,altitude_amsl: 0.08998356759548187,altitude_relative: 49.956,battery_volts: 12.241999626159668,ros_time: 1579810201,linear_vel_z: 9.80665,linear_vel_y: 0.0392266000000012,longitude: -3.0063589,latitude: 51.7100644,roll: 1.6627921578015612
altitude_agl: null,angular_vel_z: 0.005632150918245312,compass_hdg: 154.35,yaw: -64.35424293982425,angular_vel_y: 0.031235964968800545,angular_vel_x: -0.01688111387193203,pitch: 0.9619054659315304,linear_vel_x: 0.26477955,altitude_amsl: 0.08998356759548187,altitude_relative: 49.954,battery_volts: 12.241999626159668,ros_time: 1579810202,linear_vel_z: 9.83606995,linear_vel_y: 0.15690640000000122,longitude: -3.0063616,latitude: 51.7100667,roll: 0.8675625175253796
altitude_agl: null,angular_vel_z: 0.00296599231660366,compass_hdg: 154.23,yaw: -64.23739206350368,angular_vel_y: 0.0031079680193215613,angular_vel_x: -0.015804361552000046,pitch: 1.5080969108372326,linear_vel_x: 0.0588399,altitude_amsl: 0.08998356759548187,altitude_relative: 49.961,battery_volts: 12.241999626159668,ros_time: 1579810203,linear_vel_z: 9.7870367,linear_vel_y: 0.1961330000000012,longitude: -3.006367,latitude: 51.7100681,roll: -0.17373475946149475
altitude_agl: null,angular_vel_z: 0.003362644230946899,compass_hdg: 154.26,yaw: -64.26714436752823,angular_vel_y: -0.004421763122081757,angular_vel_x: -0.010930690914392471,pitch: 1.1843145679971285,linear_vel_x: -0.04903325,altitude_amsl: 0.08998356759548187,altitude_relative: 49.973,battery_volts: 12.241999626159668,ros_time: 1579810204,linear_vel_z: 9.80665,linear_vel_y: 0.07845320000000121,longitude: -3.0063711,latitude: 51.7100679,roll: -0.7258594643011823
altitude_agl: null,angular_vel_z: 0.002793778199702502,compass_hdg: 154.23,yaw: -64.2392771957146,angular_vel_y: -0.007275084964931011,angular_vel_x: -0.00032858620397746563,pitch: 0.7132201458812173,linear_vel_x: -0.06864655,altitude_amsl: 0.08998356759548187,altitude_relative: 49.979,battery_volts: 12.241999626159668,ros_time: 1579810205,linear_vel_z: 9.7478101,linear_vel_y: 1.1937624437661242e-15,longitude: -3.006373,latitude: 51.7100668,roll: -0.8309199400104379
altitude_agl: null,angular_vel_z: 0.0034702087286859755,compass_hdg: 154.24,yaw: -64.23986459198323,angular_vel_y: -0.0036333899479359384,angular_vel_x: -0.0016521014040336013,pitch: 0.5469531710807143,linear_vel_x: -0.04903325,altitude_amsl: 0.08998356759548187,altitude_relative: 49.553,battery_volts: 12.291000366210938,ros_time: 1579810206,linear_vel_z: 8.75733845,linear_vel_y: 1.0724646501842543e-15,longitude: -3.0063732,latitude: 51.7100656,roll: -0.7610048430057181
altitude_agl: null,angular_vel_z: 0.0023101889528334145,compass_hdg: 154.23,yaw: -64.24136723360061,angular_vel_y: -0.002105520805343985,angular_vel_x: 0.00150444230530411,pitch: 0.37171354218620933,linear_vel_x: -0.04903325,altitude_amsl: 0.08998356759548187,altitude_relative: 48.397,battery_volts: 12.291000366210938,ros_time: 1579810206,linear_vel_z: 9.56148375,linear_vel_y: 1.1709440469536932e-15,longitude: -3.0063727,latitude: 51.7100651,roll: -0.5392824417559704
altitude_agl: null,angular_vel_z: 0.002463079523295164,compass_hdg: 154.23,yaw: -64.2332802896233,angular_vel_y: 0.0016108343843370678,angular_vel_x: 0.0015112096443772316,pitch: 0.33835924718937777,linear_vel_x: 0.0,altitude_amsl: 0.08998356759548187,altitude_relative: 47.028,battery_volts: 12.241999626159668,ros_time: 1579810207,linear_vel_z: 9.79684335,linear_vel_y: 0.019613300000001197,longitude: -3.006372,latitude: 51.7100649,roll: -0.4797911205591893
altitude_agl: null,angular_vel_z: 0.0026602353900671005,compass_hdg: 154.23,yaw: -64.23031598752354,angular_vel_y: 0.00093317567370832,angular_vel_x: -0.0010083300294354558,pitch: 0.3918020623501425,linear_vel_x: 0.00980665,altitude_amsl: 0.08998356759548187,altitude_relative: 45.591,battery_volts: 12.241999626159668,ros_time: 1579810209,linear_vel_z: 9.80665,linear_vel_y: 1.2009682532858392e-15,longitude: -3.0063714,latitude: 51.7100649,roll: -0.4167247289404352
altitude_agl: null,angular_vel_z: 0.00201951409690082,compass_hdg: 154.21,yaw: -64.21979749620172,angular_vel_y: 0.006230180151760578,angular_vel_x: -0.0032600420527160168,pitch: 0.509693368580384,linear_vel_x: 0.00980665,altitude_amsl: 0.08998356759548187,altitude_relative: 44.125,battery_volts: 12.241999626159668,ros_time: 1579810210,linear_vel_z: 9.79684335,linear_vel_y: -0.029419949999998803,longitude: -3.0063713,latitude: 51.710065,roll: -0.47369560361177604
altitude_agl: null,angular_vel_z: 0.0022908032406121492,compass_hdg: 154.22,yaw: -64.22202413787113,angular_vel_y: 0.0004481789655983451,angular_vel_x: 0.005114782601594925,pitch: 0.4383422509830953,linear_vel_x: 0.0,altitude_amsl: 0.08998356759548187,altitude_relative: 42.639,battery_volts: 12.241999626159668,ros_time: 1579810210,linear_vel_z: 9.8262633,linear_vel_y: -0.0294199499999988,longitude: -3.0063711,latitude: 51.710065,roll: -0.3785619007266352
altitude_agl: null,angular_vel_z: 0.0022477458696812387,compass_hdg: 154.21,yaw: -64.2164507035084,angular_vel_y: 0.003831285517662764,angular_vel_x: 0.0027731601148843765,pitch: 0.34913728569965785,linear_vel_x: 0.02941995,altitude_amsl: 0.08998356759548187,altitude_relative: 41.15,battery_volts: 12.241999626159668,ros_time: 1579810211,linear_vel_z: 9.79684335,linear_vel_y: -0.0392265999999988,longitude: -3.0063709,latitude: 51.710065,roll: -0.348675607600451
altitude_agl: null,angular_vel_z: 0.00205657840706408,compass_hdg: 154.21,yaw: -64.21411477881226,angular_vel_y: 0.0031957710161805157,angular_vel_x: -0.0007564186817035079,pitch: 0.38143146063210964,linear_vel_x: 0.0196133,altitude_amsl: 0.08998356759548187,altitude_relative: 39.659,battery_volts: 12.241999626159668,ros_time: 1579810213,linear_vel_z: 9.77723005,linear_vel_y: 1.1973653485259817e-15,longitude: -3.0063708,latitude: 51.7100651,roll: -0.29350499470351105
altitude_agl: null,angular_vel_z: 0.0018448445480316875,compass_hdg: 154.21,yaw: -64.21440164675741,angular_vel_y: 0.001524078310467303,angular_vel_x: 0.003476711455732584,pitch: 0.4157334710567068,linear_vel_x: -0.02941995,altitude_amsl: 0.08998356759548187,altitude_relative: 38.166,battery_volts: 12.241999626159668,ros_time: 1579810213,linear_vel_z: 9.87529655,linear_vel_y: 0.02941995000000121,longitude: -3.0063706,latitude: 51.7100652,roll: -0.3008166855295833
altitude_agl: null,angular_vel_z: 0.0015382287092506883,compass_hdg: 154.2,yaw: -64.21142368427925,angular_vel_y: 0.002301911823451519,angular_vel_x: -0.003352788742631674,pitch: 0.451405601420553,linear_vel_x: -0.00980665,altitude_amsl: 0.08998356759548187,altitude_relative: 36.671,battery_volts: 12.241999626159668,ros_time: 1579810214,linear_vel_z: 9.75761675,linear_vel_y: 0.049033250000001194,longitude: -3.0063706,latitude: 51.7100652,roll: -0.28538379305866013
altitude_agl: null,angular_vel_z: 0.001980009255930781,compass_hdg: 154.2,yaw: -64.20871892936796,angular_vel_y: 0.0021542080212384467,angular_vel_x: -0.005050145089626312,pitch: 0.43285163266405147,linear_vel_x: -0.02941995,altitude_amsl: 0.08998356759548187,altitude_relative: 35.175,battery_volts: 12.241999626159668,ros_time: 1579810216,linear_vel_z: 9.80665,linear_vel_y: 1.2009682532858392e-15,longitude: -3.0063706,latitude: 51.7100652,roll: -0.28965338166143223
altitude_agl: null,angular_vel_z: 0.0017110393382608893,compass_hdg: 154.2,yaw: -64.20988006152686,angular_vel_y: -0.0013625827850773928,angular_vel_x: 0.0010988108115270734,pitch: 0.4257451143173439,linear_vel_x: -0.00980665,altitude_amsl: 0.08998356759548187,altitude_relative: 33.68,battery_volts: 12.241999626159668,ros_time: 1579810216,linear_vel_z: 9.79684335,linear_vel_y: 0.0588399000000012,longitude: -3.0063706,latitude: 51.7100652,roll: -0.31675922750646573
altitude_agl: null,angular_vel_z: 0.0020993039943277836,compass_hdg: 154.2,yaw: -64.20370557051714,angular_vel_y: 0.00023269141092896486,angular_vel_x: -0.005530030932277441,pitch: 0.4374942136285296,linear_vel_x: -0.04903325,altitude_amsl: 0.08998356759548187,altitude_relative: 32.185,battery_volts: 12.241999626159668,ros_time: 1579810217,linear_vel_z: 9.8262633,linear_vel_y: 0.0196133000000012,longitude: -3.0063706,latitude: 51.7100651,roll: -0.3490106070348989
altitude_agl: null,angular_vel_z: 0.0027189035899937157,compass_hdg: 154.2,yaw: -64.20101447598418,angular_vel_y: -0.0036304416134953495,angular_vel_x: -0.0066244048066437244,pitch: 0.4233038819780198,linear_vel_x: -0.00980665,altitude_amsl: 0.08998356759548187,altitude_relative: 30.689,battery_volts: 12.241999626159668,ros_time: 1579810218,linear_vel_z: 9.79684335,linear_vel_y: 1.1997672850325534e-15,longitude: -3.0063706,latitude: 51.7100651,roll: -0.2710538160561354
altitude_agl: null,angular_vel_z: 0.0016156911151483653,compass_hdg: 154.2,yaw: -64.21291266551833,angular_vel_y: 0.0021472531370818615,angular_vel_x: 0.0036102531012147665,pitch: 0.40958139160522933,linear_vel_x: -0.00980665,altitude_amsl: 0.08998356759548187,altitude_relative: 29.565,battery_volts: 12.241999626159668,ros_time: 1579810219,linear_vel_z: 9.8262633,linear_vel_y: -0.0490332499999988,longitude: -3.0063705,latitude: 51.710065,roll: -0.3442784065179908
altitude_agl: null,angular_vel_z: 0.001418341533280909,compass_hdg: 154.2,yaw: -64.20436126867749,angular_vel_y: -1.760968007147295e-05,angular_vel_x: -0.004121534992009401,pitch: 0.34633448022114605,linear_vel_x: 0.00980665,altitude_amsl: 0.08998356759548187,altitude_relative: 28.069,battery_volts: 12.241999626159668,ros_time: 1579810220,linear_vel_z: 9.81645665,linear_vel_y: 0.0294199500000012,longitude: -3.0063703,latitude: 51.710065,roll: -0.22926973360218567
altitude_agl: null,angular_vel_z: 0.0015748280566185706,compass_hdg: 154.19,yaw: -64.19828240031619,angular_vel_y: 0.006096094846725464,angular_vel_x: -4.1380757465958595e-05,pitch: 0.31013682549760574,linear_vel_x: 0.0,altitude_amsl: 0.08998356759548187,altitude_relative: 26.571,battery_volts: 12.241999626159668,ros_time: 1579810221,linear_vel_z: 9.83606995,linear_vel_y: 1.2045711580456967e-15,longitude: -3.0063703,latitude: 51.7100651,roll: -0.32151242551898634
altitude_agl: null,angular_vel_z: 0.0021976577118039122,compass_hdg: 154.2,yaw: -64.20594587256494,angular_vel_y: 0.006973647512495518,angular_vel_x: -0.004888151306658983,pitch: 0.36848328959561655,linear_vel_x: -0.00980665,altitude_amsl: 0.08998356759548187,altitude_relative: 25.075,battery_volts: 12.241999626159668,ros_time: 1579810222,linear_vel_z: 9.7674234,linear_vel_y: -0.019613299999998803,longitude: -3.0063703,latitude: 51.7100651,roll: -0.3006442499334669
altitude_agl: null,angular_vel_z: 0.001553906360641121,compass_hdg: 154.2,yaw: -64.2072026273722,angular_vel_y: 0.0074167400598526,angular_vel_x: 0.0010815552668645978,pitch: 0.30978971314955156,linear_vel_x: 0.00980665,altitude_amsl: 0.08998356759548187,altitude_relative: 23.575,battery_volts: 12.241999626159668,ros_time: 1579810223,linear_vel_z: 9.80665,linear_vel_y: -0.0294199499999988,longitude: -3.0063703,latitude: 51.7100651,roll: -0.36429641031482884
altitude_agl: null,angular_vel_z: 0.0021471467334777112,compass_hdg: 154.2,yaw: -64.19408866416576,angular_vel_y: 0.0035539781674742703,angular_vel_x: -0.004404708277434111,pitch: 0.29826731742187224,linear_vel_x: 0.0196133,altitude_amsl: 0.08998356759548187,altitude_relative: 22.077,battery_volts: 12.241999626159668,ros_time: 1579810224,linear_vel_z: 9.8851032,linear_vel_y: -0.02941994999999879,longitude: -3.0063701,latitude: 51.7100651,roll: -0.24294620023935767
